[{"id": "zj8Lq1T8KIC5zwFief15jg", "alias": "prince-street-pizza-new-york-2", "name": "Prince Street Pizza", "image_url": "https://s3-media4.fl.yelpcdn.com/bphoto/HVjttLctuIzKL3LSlsRf-w/o.jpg", "is_closed": false, "url": "https://www.yelp.com/biz/prince-street-pizza-new-york-2?adjust_creative=ZDwaXuenEAs27g9Yrxom9g&utm_campaign=yelp_api_v3&utm_medium=api_v3_business_search&utm_source=ZDwaXuenEAs27g9Yrxom9g", "review_count": 4544, "categories": [{"alias": "pizza", "title": "Pizza"}, {"alias": "italian", "title": "Italian"}], "rating": 4.5, "coordinates": {"latitude": 40.72308755605564, "longitude": -73.99453001177575}, "transactions": ["pickup", "delivery"], "price": "$", "location": {"address1": "27 Prince St", "address2": null, "address3": "", "city": "New York", "zip_code": "10012", "country": "US", "state": "NY", "display_address": ["27 Prince St", "New York, NY 10012"]}, "phone": "+12129664100", "display_phone": "(212) 966-4100", "distance": 1961.8771417367063}, {"id": "ysqgdbSrezXgVwER2kQWKA", "alias": "julianas-brooklyn-3", "name": "Juliana's", "image_url": "https://s3-media1.fl.yelpcdn.com/bphoto/OCDZ4nXoaMHF0TraV0u2-g/o.jpg", "is_closed": false, "url": "https://www.yelp.com/biz/julianas-brooklyn-3?adjust_creative=ZDwaXuenEAs27g9Yrxom9g&utm_campaign=yelp_api_v3&utm_medium=api_v3_business_search&utm_source=ZDwaXuenEAs27g9Yrxom9g", "review_count": 2538, "categories": [{"alias": "pizza", "title": "Pizza"}], "rating": 4.5, "coordinates": {"latitude": 40.70274718768062, "longitude": -73.99343490196397}, "transactions": ["delivery"], "price": "$$", "location": {"address1": "19 Old Fulton St", "address2": "", "address3": "", "city": "Brooklyn", "zip_code": "11201", "country": "US", "state": "NY", "display_address": ["19 Old Fulton St", "Brooklyn, NY 11201"]}, "phone": "+17185966700", "display_phone": "(718) 596-6700", "distance": 308.56984360837544}, {"id": "v1DHGRNCH9247WLYoaoA9A", "alias": "l-industrie-pizzeria-brooklyn", "name": "L'industrie Pizzeria", "image_url": "https://s3-media3.fl.yelpcdn.com/bphoto/Llq71WxE8MzpOodJoa6-kg/o.jpg", "is_closed": false, "url": "https://www.yelp.com/biz/l-industrie-pizzeria-brooklyn?adjust_creative=ZDwaXuenEAs27g9Yrxom9g&utm_campaign=yelp_api_v3&utm_medium=api_v3_business_search&utm_source=ZDwaXuenEAs27g9Yrxom9g", "review_count": 786, "categories": [{"alias": "pizza", "title": "Pizza"}], "rating": 4.5, "coordinates": {"latitude": 40.71162, "longitude": -73.95783}, "transactions": ["delivery"], "price": "$", "location": {"address1": "254 S 2nd St", "address2": "", "address3": "", "city": "Brooklyn", "zip_code": "11211", "country": "US", "state": "NY", "display_address": ["254 S 2nd St", "Brooklyn, NY 11211"]}, "phone": "+17185990002", "display_phone": "(718) 599-0002", "distance": 3145.016041338447}, {"id": "WG639VkTjmK5dzydd1BBJA", "alias": "rubirosa-new-york-2", "name": "Rubirosa", "image_url": "https://s3-media4.fl.yelpcdn.com/bphoto/LuSzR8cpVQRofXOT_bMi1A/o.jpg", "is_closed": false, "url": "https://www.yelp.com/biz/rubirosa-new-york-2?adjust_creative=ZDwaXuenEAs27g9Yrxom9g&utm_campaign=yelp_api_v3&utm_medium=api_v3_business_search&utm_source=ZDwaXuenEAs27g9Yrxom9g", "review_count": 2783, "categories": [{"alias": "italian", "title": "Italian"}, {"alias": "pizza", "title": "Pizza"}], "rating": 4.5, "coordinates": {"latitude": 40.722766, "longitude": -73.996233}, "transactions": ["pickup"], "price": "$$", "location": {"address1": "235 Mulberry St", "address2": "", "address3": "", "city": "New York", "zip_code": "10012", "country": "US", "state": "NY", "display_address": ["235 Mulberry St", "New York, NY 10012"]}, "phone": "+12129650500", "display_phone": "(212) 965-0500", "distance": 1932.9467701334759}, {"id": "WIhm0W9197f_rRtDziq5qQ", "alias": "lombardis-pizza-new-york-4", "name": "Lombardi's Pizza", "image_url": "https://s3-media1.fl.yelpcdn.com/bphoto/UZ6V_hobp1KpYDPOHNoCKw/o.jpg", "is_closed": false, "url": "https://www.yelp.com/biz/lombardis-pizza-new-york-4?adjust_creative=ZDwaXuenEAs27g9Yrxom9g&utm_campaign=yelp_api_v3&utm_medium=api_v3_business_search&utm_source=ZDwaXuenEAs27g9Yrxom9g", "review_count": 6439, "categories": [{"alias": "pizza", "title": "Pizza"}], "rating": 4.0, "coordinates": {"latitude": 40.7215934960083, "longitude": -73.9955956044561}, "transactions": ["pickup", "delivery"], "price": "$$", "location": {"address1": "32 Spring St", "address2": "", "address3": "", "city": "New York", "zip_code": "10012", "country": "US", "state": "NY", "display_address": ["32 Spring St", "New York, NY 10012"]}, "phone": "+12129417994", "display_phone": "(212) 941-7994", "distance": 1798.9959778083735}, {"id": "Q9F2ocrmYuGt1yn3M7MOBw", "alias": "lucali-brooklyn-3", "name": "Lucali", "image_url": "https://s3-media3.fl.yelpcdn.com/bphoto/Yl_eZ_DW_iaumnU-pfSoaw/o.jpg", "is_closed": false, "url": "https://www.yelp.com/biz/lucali-brooklyn-3?adjust_creative=ZDwaXuenEAs27g9Yrxom9g&utm_campaign=yelp_api_v3&utm_medium=api_v3_business_search&utm_source=ZDwaXuenEAs27g9Yrxom9g", "review_count": 1876, "categories": [{"alias": "pizza", "title": "Pizza"}], "rating": 4.0, "coordinates": {"latitude": 40.681840746711224, "longitude": -74.0003327}, "transactions": ["delivery"], "price": "$$", "location": {"address1": "575 Henry St", "address2": null, "address3": "", "city": "Brooklyn", "zip_code": "11231", "country": "US", "state": "NY", "display_address": ["575 Henry St", "Brooklyn, NY 11231"]}, "phone": "+17188584086", "display_phone": "(718) 858-4086", "distance": 2673.589406211555}, {"id": "uc5qQMzs96rzjK27epDCug", "alias": "joes-pizza-new-york-4", "name": "Joe's Pizza", "image_url": "https://s3-media4.fl.yelpcdn.com/bphoto/1TvTRG9HFmEGaTSBMcUBhA/o.jpg", "is_closed": false, "url": "https://www.yelp.com/biz/joes-pizza-new-york-4?adjust_creative=ZDwaXuenEAs27g9Yrxom9g&utm_campaign=yelp_api_v3&utm_medium=api_v3_business_search&utm_source=ZDwaXuenEAs27g9Yrxom9g", "review_count": 2887, "categories": [{"alias": "pizza", "title": "Pizza"}], "rating": 4.0, "coordinates": {"latitude": 40.73060076, "longitude": -74.00215997}, "transactions": ["delivery"], "price": "$", "location": {"address1": "7 Carmine St", "address2": "", "address3": "", "city": "New York", "zip_code": "10014", "country": "US", "state": "NY", "display_address": ["7 Carmine St", "New York, NY 10014"]}, "phone": "+12123661182", "display_phone": "(212) 366-1182", "distance": 2874.702513677348}, {"id": "hGksyTiHBBdrhbiVjXzWVw", "alias": "scarrs-pizza-new-york", "name": "Scarr's Pizza", "image_url": "https://s3-media3.fl.yelpcdn.com/bphoto/xonxGJK91P_Ow3iY7olsxA/o.jpg", "is_closed": false, "url": "https://www.yelp.com/biz/scarrs-pizza-new-york?adjust_creative=ZDwaXuenEAs27g9Yrxom9g&utm_campaign=yelp_api_v3&utm_medium=api_v3_business_search&utm_source=ZDwaXuenEAs27g9Yrxom9g", "review_count": 626, "categories": [{"alias": "pizza", "title": "Pizza"}], "rating": 4.0, "coordinates": {"latitude": 40.71534, "longitude": -73.9914}, "transactions": ["pickup", "delivery"], "price": "$", "location": {"address1": "22 Orchard St", "address2": "", "address3": "", "city": "New York", "zip_code": "10002", "country": "US", "state": "NY", "display_address": ["22 Orchard St", "New York, NY 10002"]}, "phone": "+12123343481", "display_phone": "(212) 334-3481", "distance": 1125.7843300426755}, {"id": "KEEXuHCYhsQJ-zpJhu98bA", "alias": "joes-pizza-new-york-148", "name": "Joe's Pizza", "image_url": "https://s3-media2.fl.yelpcdn.com/bphoto/tCW15Acx60p2HfQdAm7Wag/o.jpg", "is_closed": false, "url": "https://www.yelp.com/biz/joes-pizza-new-york-148?adjust_creative=ZDwaXuenEAs27g9Yrxom9g&utm_campaign=yelp_api_v3&utm_medium=api_v3_business_search&utm_source=ZDwaXuenEAs27g9Yrxom9g", "review_count": 1637, "categories": [{"alias": "pizza", "title": "Pizza"}], "rating": 4.0, "coordinates": {"latitude": 40.7547, "longitude": -73.98696}, "transactions": ["pickup", "delivery"], "price": "$", "location": {"address1": "1435 Broadway", "address2": "", "address3": null, "city": "New York", "zip_code": "10018", "country": "US", "state": "NY", "display_address": ["1435 Broadway", "New York, NY 10018"]}, "phone": "+16465594878", "display_phone": "(646) 559-4878", "distance": 5508.746902433722}, {"id": "2ggi1luerd3Mf_C82JvCYg", "alias": "grimaldis-pizzeria-brooklyn-4", "name": "Grimaldi's Pizzeria", "image_url": "https://s3-media1.fl.yelpcdn.com/bphoto/Ek1cwe4Dh74lu2P4BgHsFQ/o.jpg", "is_closed": false, "url": "https://www.yelp.com/biz/grimaldis-pizzeria-brooklyn-4?adjust_creative=ZDwaXuenEAs27g9Yrxom9g&utm_campaign=yelp_api_v3&utm_medium=api_v3_business_search&utm_source=ZDwaXuenEAs27g9Yrxom9g", "review_count": 4864, "categories": [{"alias": "pizza", "title": "Pizza"}, {"alias": "desserts", "title": "Desserts"}, {"alias": "beer_and_wine", "title": "Beer, Wine & Spirits"}], "rating": 3.5, "coordinates": {"latitude": 40.7026459, "longitude": -73.9932413}, "transactions": ["pickup", "delivery"], "price": "$$", "location": {"address1": "1 Front St", "address2": "", "address3": "", "city": "Brooklyn", "zip_code": "11201", "country": "US", "state": "NY", "display_address": ["1 Front St", "Brooklyn, NY 11201"]}, "phone": "+17188584300", "display_phone": "(718) 858-4300", "distance": 323.61541267581333}, {"id": "LF1QAuvpfX7KGQlg2zMg6Q", "alias": "johns-of-bleecker-street-new-york-2", "name": "John's of Bleecker Street", "image_url": "https://s3-media1.fl.yelpcdn.com/bphoto/r2bmU0uH-6SSxqjRbITDgg/o.jpg", "is_closed": false, "url": "https://www.yelp.com/biz/johns-of-bleecker-street-new-york-2?adjust_creative=ZDwaXuenEAs27g9Yrxom9g&utm_campaign=yelp_api_v3&utm_medium=api_v3_business_search&utm_source=ZDwaXuenEAs27g9Yrxom9g", "review_count": 2392, "categories": [{"alias": "pizza", "title": "Pizza"}], "rating": 4.0, "coordinates": {"latitude": 40.73158, "longitude": -74.00332}, "transactions": ["pickup", "delivery"], "price": "$$", "location": {"address1": "278 Bleecker St", "address2": "", "address3": "", "city": "New York", "zip_code": "10014", "country": "US", "state": "NY", "display_address": ["278 Bleecker St", "New York, NY 10014"]}, "phone": "+12122431680", "display_phone": "(212) 243-1680", "distance": 3010.899021476809}, {"id": "pGr5QuQU7Ur5GHLvXbT8bw", "alias": "paulie-gees-brooklyn", "name": "Paulie Gee's", "image_url": "https://s3-media2.fl.yelpcdn.com/bphoto/1j39J4NABK_RBtO-l90QNg/o.jpg", "is_closed": false, "url": "https://www.yelp.com/biz/paulie-gees-brooklyn?adjust_creative=ZDwaXuenEAs27g9Yrxom9g&utm_campaign=yelp_api_v3&utm_medium=api_v3_business_search&utm_source=ZDwaXuenEAs27g9Yrxom9g", "review_count": 1322, "categories": [{"alias": "pizza", "title": "Pizza"}], "rating": 4.5, "coordinates": {"latitude": 40.729546, "longitude": -73.958568}, "transactions": ["delivery"], "price": "$$", "location": {"address1": "60 Greenpoint Ave", "address2": "", "address3": "", "city": "Brooklyn", "zip_code": "11222", "country": "US", "state": "NY", "display_address": ["60 Greenpoint Ave", "Brooklyn, NY 11222"]}, "phone": "+13479873747", "display_phone": "(347) 987-3747", "distance": 4027.308250680752}, {"id": "0UdC0VYX6aAvLiOcpR4MVQ", "alias": "joes-pizza-new-york-7", "name": "Joe's Pizza", "image_url": "https://s3-media3.fl.yelpcdn.com/bphoto/BTCcvlqxlp2MOeK_rHa8lQ/o.jpg", "is_closed": false, "url": "https://www.yelp.com/biz/joes-pizza-new-york-7?adjust_creative=ZDwaXuenEAs27g9Yrxom9g&utm_campaign=yelp_api_v3&utm_medium=api_v3_business_search&utm_source=ZDwaXuenEAs27g9Yrxom9g", "review_count": 1009, "categories": [{"alias": "pizza", "title": "Pizza"}], "rating": 4.0, "coordinates": {"latitude": 40.73331, "longitude": -73.98763}, "transactions": ["pickup", "delivery"], "price": "$", "location": {"address1": "150 E 14th St", "address2": "", "address3": "", "city": "New York", "zip_code": "10003", "country": "US", "state": "NY", "display_address": ["150 E 14th St", "New York, NY 10003"]}, "phone": "+12123889474", "display_phone": "(212) 388-9474", "distance": 3140.2631090277323}, {"id": "16ZnHpuaaBt92XWeJHCC5A", "alias": "olio-e-pi\u00f9-new-york-7", "name": "Olio e Pi\u00f9", "image_url": "https://s3-media3.fl.yelpcdn.com/bphoto/Nn4I1SG0pYmqCyJPlArYOQ/o.jpg", "is_closed": false, "url": "https://www.yelp.com/biz/olio-e-pi%C3%B9-new-york-7?adjust_creative=ZDwaXuenEAs27g9Yrxom9g&utm_campaign=yelp_api_v3&utm_medium=api_v3_business_search&utm_source=ZDwaXuenEAs27g9Yrxom9g", "review_count": 3686, "categories": [{"alias": "pizza", "title": "Pizza"}, {"alias": "italian", "title": "Italian"}, {"alias": "cocktailbars", "title": "Cocktail Bars"}], "rating": 4.5, "coordinates": {"latitude": 40.733798036104304, "longitude": -73.99977392649927}, "transactions": ["pickup", "delivery"], "price": "$$", "location": {"address1": "3 Greenwich Ave", "address2": null, "address3": "", "city": "New York", "zip_code": "10014", "country": "US", "state": "NY", "display_address": ["3 Greenwich Ave", "New York, NY 10014"]}, "phone": "+12122436546", "display_phone": "(212) 243-6546", "distance": 3186.3804982206075}, {"id": "m3PS0tIaa0ChcP8Y5S-DrQ", "alias": "mamas-too-new-york", "name": "MAMA'S TOO!", "image_url": "https://s3-media2.fl.yelpcdn.com/bphoto/-bWaqeMpr3Pson47h00o0A/o.jpg", "is_closed": false, "url": "https://www.yelp.com/biz/mamas-too-new-york?adjust_creative=ZDwaXuenEAs27g9Yrxom9g&utm_campaign=yelp_api_v3&utm_medium=api_v3_business_search&utm_source=ZDwaXuenEAs27g9Yrxom9g", "review_count": 575, "categories": [{"alias": "pizza", "title": "Pizza"}, {"alias": "italian", "title": "Italian"}], "rating": 3.5, "coordinates": {"latitude": 40.80084, "longitude": -73.96766}, "transactions": ["delivery"], "price": "$$", "location": {"address1": "2750 Broadway", "address2": "", "address3": null, "city": "New York", "zip_code": "10025", "country": "US", "state": "NY", "display_address": ["2750 Broadway", "New York, NY 10025"]}, "phone": "+12125107256", "display_phone": "(212) 510-7256", "distance": 10840.163726815497}, {"id": "oJ_XSPZFpvIt6rvheSQl7A", "alias": "bleecker-street-pizza-new-york", "name": "Bleecker Street Pizza", "image_url": "https://s3-media3.fl.yelpcdn.com/bphoto/KdA2kfYYI9-JFb_Qmdb74A/o.jpg", "is_closed": false, "url": "https://www.yelp.com/biz/bleecker-street-pizza-new-york?adjust_creative=ZDwaXuenEAs27g9Yrxom9g&utm_campaign=yelp_api_v3&utm_medium=api_v3_business_search&utm_source=ZDwaXuenEAs27g9Yrxom9g", "review_count": 2713, "categories": [{"alias": "pizza", "title": "Pizza"}, {"alias": "italian", "title": "Italian"}], "rating": 4.0, "coordinates": {"latitude": 40.7320627016512, "longitude": -74.0036552270137}, "transactions": ["pickup", "delivery"], "price": "$", "location": {"address1": "69 7th Ave S", "address2": null, "address3": "", "city": "New York", "zip_code": "10014", "country": "US", "state": "NY", "display_address": ["69 7th Ave S", "New York, NY 10014"]}, "phone": "+12129244466", "display_phone": "(212) 924-4466", "distance": 3073.5742196084057}, {"id": "Aazjxg21VH2cncWYBAv68Q", "alias": "sottocasa-pizzeria-brooklyn-3", "name": "Sottocasa Pizzeria", "image_url": "https://s3-media2.fl.yelpcdn.com/bphoto/MbBAMb3kb1VXtF9M5ptazA/o.jpg", "is_closed": false, "url": "https://www.yelp.com/biz/sottocasa-pizzeria-brooklyn-3?adjust_creative=ZDwaXuenEAs27g9Yrxom9g&utm_campaign=yelp_api_v3&utm_medium=api_v3_business_search&utm_source=ZDwaXuenEAs27g9Yrxom9g", "review_count": 690, "categories": [{"alias": "pizza", "title": "Pizza"}, {"alias": "italian", "title": "Italian"}], "rating": 4.5, "coordinates": {"latitude": 40.688285, "longitude": -73.989006}, "transactions": ["delivery"], "price": "$$", "location": {"address1": "298 Atlantic Ave", "address2": null, "address3": "", "city": "Brooklyn", "zip_code": "11201", "country": "US", "state": "NY", "display_address": ["298 Atlantic Ave", "Brooklyn, NY 11201"]}, "phone": "+17188528758", "display_phone": "(718) 852-8758", "distance": 1955.3105885559205}, {"id": "4MIHutYjIwoXsi-R8TlrSg", "alias": "belluccis-pizzeria-astoria-2", "name": "Bellucci's Pizzeria", "image_url": "https://s3-media1.fl.yelpcdn.com/bphoto/Wg3vw-TFbEHm5dYkaXX1Tg/o.jpg", "is_closed": false, "url": "https://www.yelp.com/biz/belluccis-pizzeria-astoria-2?adjust_creative=ZDwaXuenEAs27g9Yrxom9g&utm_campaign=yelp_api_v3&utm_medium=api_v3_business_search&utm_source=ZDwaXuenEAs27g9Yrxom9g", "review_count": 83, "categories": [{"alias": "pizza", "title": "Pizza"}], "rating": 4.5, "coordinates": {"latitude": 40.76432, "longitude": -73.91649}, "transactions": ["pickup", "delivery"], "location": {"address1": "37-08 30th Ave", "address2": "", "address3": null, "city": "Astoria", "zip_code": "11103", "country": "US", "state": "NY", "display_address": ["37-08 30th Ave", "Astoria, NY 11103"]}, "phone": "+17184072497", "display_phone": "(718) 407-2497", "distance": 9270.489897001944}, {"id": "xxgcU_oFIox_pAmroo9WwA", "alias": "front-street-pizza-brooklyn", "name": "Front Street Pizza", "image_url": "https://s3-media1.fl.yelpcdn.com/bphoto/ybrfmg0lGdBoJRM7X1_s3A/o.jpg", "is_closed": false, "url": "https://www.yelp.com/biz/front-street-pizza-brooklyn?adjust_creative=ZDwaXuenEAs27g9Yrxom9g&utm_campaign=yelp_api_v3&utm_medium=api_v3_business_search&utm_source=ZDwaXuenEAs27g9Yrxom9g", "review_count": 429, "categories": [{"alias": "pizza", "title": "Pizza"}, {"alias": "bars", "title": "Bars"}, {"alias": "italian", "title": "Italian"}], "rating": 4.0, "coordinates": {"latitude": 40.70244, "longitude": -73.98943}, "transactions": ["pickup", "delivery"], "price": "$", "location": {"address1": "80 Front St", "address2": "", "address3": "", "city": "Brooklyn", "zip_code": "11201", "country": "US", "state": "NY", "display_address": ["80 Front St", "Brooklyn, NY 11201"]}, "phone": "+17188753700", "display_phone": "(718) 875-3700", "distance": 550.4392264831844}, {"id": "FhXjAc6nKLf414KxYujUHw", "alias": "robertas-brooklyn-2", "name": "Roberta's", "image_url": "https://s3-media4.fl.yelpcdn.com/bphoto/8fY9fA5TtCF0ebdTNph9mQ/o.jpg", "is_closed": false, "url": "https://www.yelp.com/biz/robertas-brooklyn-2?adjust_creative=ZDwaXuenEAs27g9Yrxom9g&utm_campaign=yelp_api_v3&utm_medium=api_v3_business_search&utm_source=ZDwaXuenEAs27g9Yrxom9g", "review_count": 3188, "categories": [{"alias": "pizza", "title": "Pizza"}, {"alias": "italian", "title": "Italian"}], "rating": 4.0, "coordinates": {"latitude": 40.70493, "longitude": -73.93399}, "transactions": ["pickup", "delivery"], "price": "$$", "location": {"address1": "261 Moore St", "address2": "", "address3": "", "city": "Brooklyn", "zip_code": "11206", "country": "US", "state": "NY", "display_address": ["261 Moore St", "Brooklyn, NY 11206"]}, "phone": "+17184171118", "display_phone": "(718) 417-1118", "distance": 5083.5233118395545}]